{
  "type": "FeatureCollection",
  "features": [
    {
      "type": "Feature",
      "geometry": {
        "type": "Point",
        "coordinates": [-58.3816, -34.6037]
      },
      "properties": {
        "id": "caba",
        "nombre": "Ciudad Autónoma de Buenos Aires",
        "provincia": "CABA",
        "poblacion": 3120612
      }
    },
    {
      "type": "Feature",
      "geometry": {
        "type": "Point",
        "coordinates": [-64.1888, -31.4167]
      },
      "properties": {
        "id": "cordoba",
        "nombre": "Córdoba",
        "provincia": "Córdoba",
        "poblacion": 1565112
      }
    },
    {
      "type": "Feature",
      "geometry": {
        "type": "Point",
        "coordinates": [-60.6397, -32.9443]
      },
      "properties": {
        "id": "rosario",
        "nombre": "Rosario",
        "provincia": "Santa Fe",
        "poblacion": 1342619
      }
    },
    {
      "type": "Feature",
      "geometry": {
        "type": "Point",
        "coordinates": [-57.9545, -34.9215]
      },
      "properties": {
        "id": "la-plata",
        "nombre": "La Plata",
        "provincia": "Buenos Aires",
        "poblacion": 772618
      }
    },
    {
      "type": "Feature",
      "geometry": {
        "type": "Point",
        "coordinates": [-60.7, -31.62]
      },
      "properties": {
        "id": "santa-fe",
        "nombre": "Santa Fe",
        "provincia": "Santa Fe",
        "poblacion": 573448
      }
    },
    {
      "type": "Feature",
      "geometry": {
        "type": "Point",
        "coordinates": [-68.8458, -32.8895]
      },
      "properties": {
        "id": "mendoza",
        "nombre": "Mendoza",
        "provincia": "Mendoza",
        "poblacion": 1148220
      }
    },
    {
      "type": "Feature",
      "geometry": {
        "type": "Point",
        "coordinates": [-65.2043, -26.83]
      },
      "properties": {
        "id": "san-miguel-tucuman",
        "nombre": "San Miguel de Tucumán",
        "provincia": "Tucumán",
        "poblacion": 605767
      }
    },
    {
      "type": "Feature",
      "geometry": {
        "type": "Point",
        "coordinates": [-65.4109, -24.7821]
      },
      "properties": {
        "id": "salta",
        "nombre": "Salta",
        "provincia": "Salta",
        "poblacion": 535303
      }
    },
    {
      "type": "Feature",
      "geometry": {
        "type": "Point",
        "coordinates": [-58.2635, -34.7214]
      },
      "properties": {
        "id": "quilmes",
        "nombre": "Quilmes",
        "provincia": "Buenos Aires",
        "poblacion": 262379
      }
    },
    {
      "type": "Feature",
      "geometry": {
        "type": "Point",
        "coordinates": [-58.508, -34.4754]
      },
      "properties": {
        "id": "san-isidro",
        "nombre": "San Isidro",
        "provincia": "Buenos Aires",
        "poblacion": 293212
      }
    },
    {
      "type": "Feature",
      "geometry": {
        "type": "Point",
        "coordinates": [-58.3697, -34.6644]
      },
      "properties": {
        "id": "avellaneda",
        "nombre": "Avellaneda",
        "provincia": "Buenos Aires",
        "poblacion": 342677
      }
    },
    {
      "type": "Feature",
      "geometry": {
        "type": "Point",
        "coordinates": [-63.2388, -32.4137]
      },
      "properties": {
        "id": "villa-nueva",
        "nombre": "Villa Nueva",
        "provincia": "Córdoba",
        "poblacion": 305000
      }
    },
    {
      "type": "Feature",
      "geometry": {
        "type": "Point",
        "coordinates": [-58.39, -34.7]
      },
      "properties": {
        "id": "lanus",
        "nombre": "Lanús",
        "provincia": "Buenos Aires",
        "poblacion": 459263
      }
    },
    {
      "type": "Feature",
      "geometry": {
        "type": "Point",
        "coordinates": [-58.5791, -34.4267]
      },
      "properties": {
        "id": "tigre",
        "nombre": "Tigre",
        "provincia": "Buenos Aires",
        "poblacion": 376381
      }
    },
    {
      "type": "Feature",
      "geometry": {
        "type": "Point",
        "coordinates": [-58.4077, -34.7607]
      },
      "properties": {
        "id": "lomas-de-zamora",
        "nombre": "Lomas de Zamora",
        "provincia": "Buenos Aires",
        "poblacion": 111897
      }
    },
    {
      "type": "Feature",
      "geometry": {
        "type": "Point",
        "coordinates": [-58.567, -34.673]
      },
      "properties": {
        "id": "la-matanza",
        "nombre": "La Matanza",
        "provincia": "Buenos Aires",
        "poblacion": 304000
      }
    },
    {
      "type": "Feature",
      "geometry": {
        "type": "Point",
        "coordinates": [-58.5458, -34.5804]
      },
      "properties": {
        "id": "san-martin",
        "nombre": "San Martín",
        "provincia": "Buenos Aires",
        "poblacion": 414196
      }
    },
    {
      "type": "Feature",
      "geometry": {
        "type": "Point",
        "coordinates": [-58.73, -34.66]
      },
      "properties": {
        "id": "merlo",
        "nombre": "Merlo",
        "provincia": "Buenos Aires",
        "poblacion": 244168
      }
    },
    {
      "type": "Feature",
      "geometry": {
        "type": "Point",
        "coordinates": [-58.79, -34.62]
      },
      "properties": {
        "id": "moreno",
        "nombre": "Moreno",
        "provincia": "Buenos Aires",
        "poblacion": 198000
      }
    },
    {
      "type": "Feature",
      "geometry": {
        "type": "Point",
        "coordinates": [-58.3965, -34.7506]
      },
      "properties": {
        "id": "banfield",
        "nombre": "Banfield",
        "provincia": "Buenos Aires",
        "poblacion": 223000
      }
    },
    {
      "type": "Feature",
      "geometry": {
        "type": "Point",
        "coordinates": [-58.74, -34.51]
      },
      "properties": {
        "id": "jose-c-paz",
        "nombre": "José C. Paz",
        "provincia": "Buenos Aires",
        "poblacion": 265981
      }
    },
    {
      "type": "Feature",
      "geometry": {
        "type": "Point",
        "coordinates": [-58.3965, -34.7506]
      },
      "properties": {
        "id": "temperley",
        "nombre": "Temperley",
        "provincia": "Buenos Aires",
        "poblacion": 121000
      }
    },
    {
      "type": "Feature",
      "geometry": {
        "type": "Point",
        "coordinates": [-58.71, -34.54]
      },
      "properties": {
        "id": "san-miguel",
        "nombre": "San Miguel",
        "provincia": "Buenos Aires",
        "poblacion": 281000
      }
    },
    {
      "type": "Feature",
      "geometry": {
        "type": "Point",
        "coordinates": [-58.62, -34.65]
      },
      "properties": {
        "id": "moron",
        "nombre": "Morón",
        "provincia": "Buenos Aires",
        "poblacion": 321000
      }
    },
    {
      "type": "Feature",
      "geometry": {
        "type": "Point",
        "coordinates": [-58.21, -34.77]
      },
      "properties": {
        "id": "berazategui",
        "nombre": "Berazategui",
        "provincia": "Buenos Aires",
        "poblacion": 324000
      }
    },
    {
      "type": "Feature",
      "geometry": {
        "type": "Point",
        "coordinates": [-58.91, -34.46]
      },
      "properties": {
        "id": "pilar",
        "nombre": "Pilar",
        "provincia": "Buenos Aires",
        "poblacion": 299000
      }
    },
    {
      "type": "Feature",
      "geometry": {
        "type": "Point",
        "coordinates": [-58.26, -34.78]
      },
      "properties": {
        "id": "florencio-varela",
        "nombre": "Florencio Varela",
        "provincia": "Buenos Aires",
        "poblacion": 426005
      }
    },
    {
      "type": "Feature",
      "geometry": {
        "type": "Point",
        "coordinates": [-58.68, -34.66]
      },
      "properties": {
        "id": "ituzaingo",
        "nombre": "Ituzaingó",
        "provincia": "Buenos Aires",
        "poblacion": 168000
      }
    },
    {
      "type": "Feature",
      "geometry": {
        "type": "Point",
        "coordinates": [-58.67, -34.65]
      },
      "properties": {
        "id": "castelar",
        "nombre": "Castelar",
        "provincia": "Buenos Aires",
        "poblacion": 104000
      }
    },
    {
      "type": "Feature",
      "geometry": {
        "type": "Point",
        "coordinates": [-58.6, -34.7]
      },
      "properties": {
        "id": "rafael-castillo",
        "nombre": "Rafael Castillo",
        "provincia": "Buenos Aires",
        "poblacion": 136000
      }
    },
    {
      "type": "Feature",
      "geometry": {
        "type": "Point",
        "coordinates": [-57.5576, -38.004]
      },
      "properties": {
        "id": "mar-del-plata",
        "nombre": "Mar del Plata",
        "provincia": "Buenos Aires",
        "poblacion": 593337
      }
    },
    {
      "type": "Feature",
      "geometry": {
        "type": "Point",
        "coordinates": [-62.27, -38.72]
      },
      "properties": {
        "id": "bahia-blanca",
        "nombre": "Bahía Blanca",
        "provincia": "Buenos Aires",
        "poblacion": 299101
      }
    },
    {
      "type": "Feature",
      "geometry": {
        "type": "Point",
        "coordinates": [-60.5283, -31.7317]
      },
      "properties": {
        "id": "parana",
        "nombre": "Paraná",
        "provincia": "Entre Ríos",
        "poblacion": 247863
      }
    },
    {
      "type": "Feature",
      "geometry": {
        "type": "Point",
        "coordinates": [-58.8333, -27.4667]
      },
      "properties": {
        "id": "corrientes",
        "nombre": "Corrientes",
        "provincia": "Corrientes",
        "poblacion": 352646
      }
    },
    {
      "type": "Feature",
      "geometry": {
        "type": "Point",
        "coordinates": [-55.8971, -27.3672]
      },
      "properties": {
        "id": "posadas",
        "nombre": "Posadas",
        "provincia": "Misiones",
        "poblacion": 275988
      }
    },
    {
      "type": "Feature",
      "geometry": {
        "type": "Point",
        "coordinates": [-64.2647, -27.7951]
      },
      "properties": {
        "id": "santiago-estero",
        "nombre": "Santiago del Estero",
        "provincia": "Santiago del Estero",
        "poblacion": 252192
      }
    },
    {
      "type": "Feature",
      "geometry": {
        "type": "Point",
        "coordinates": [-65.3, -24.1833]
      },
      "properties": {
        "id": "san-salvador-jujuy",
        "nombre": "San Salvador de Jujuy",
        "provincia": "Jujuy",
        "poblacion": 265249
      }
    },
    {
      "type": "Feature",
      "geometry": {
        "type": "Point",
        "coordinates": [-68.5255, -31.5375]
      },
      "properties": {
        "id": "san-juan",
        "nombre": "San Juan",
        "provincia": "San Juan",
        "poblacion": 471389
      }
    },
    {
      "type": "Feature",
      "geometry": {
        "type": "Point",
        "coordinates": [-66.3377, -33.3]
      },
      "properties": {
        "id": "san-luis",
        "nombre": "San Luis",
        "provincia": "San Luis",
        "poblacion": 169947
      }
    },
    {
      "type": "Feature",
      "geometry": {
        "type": "Point",
        "coordinates": [-65.7167, -33.6833]
      },
      "properties": {
        "id": "villa-mercedes",
        "nombre": "Villa Mercedes",
        "provincia": "San Luis",
        "poblacion": 111391
      }
    },
    {
      "type": "Feature",
      "geometry": {
        "type": "Point",
        "coordinates": [-68.0641, -38.9516]
      },
      "properties": {
        "id": "neuquen",
        "nombre": "Neuquén",
        "provincia": "Neuquén",
        "poblacion": 231198
      }
    },
    {
      "type": "Feature",
      "geometry": {
        "type": "Point",
        "coordinates": [-65.0999, -43.3]
      },
      "properties": {
        "id": "rawson",
        "nombre": "Rawson",
        "provincia": "Chubut",
        "poblacion": 26000
      }
    },
    {
      "type": "Feature",
      "geometry": {
        "type": "Point",
        "coordinates": [-67.58, -39.03]
      },
      "properties": {
        "id": "general-roca",
        "nombre": "General Roca",
        "provincia": "Río Negro",
        "poblacion": 85000
      }
    },
    {
      "type": "Feature",
      "geometry": {
        "type": "Point",
        "coordinates": [-65.0427, -42.7663]
      },
      "properties": {
        "id": "puerto-madryn",
        "nombre": "Puerto Madryn",
        "provincia": "Chubut",
        "poblacion": 93300
      }
    },
    {
      "type": "Feature",
      "geometry": {
        "type": "Point",
        "coordinates": [-68.0, -38.9333]
      },
      "properties": {
        "id": "cipolletti",
        "nombre": "Cipolletti",
        "provincia": "Río Negro",
        "poblacion": 87500
      }
    },
    {
      "type": "Feature",
      "geometry": {
        "type": "Point",
        "coordinates": [-71.3, -41.1333]
      },
      "properties": {
        "id": "san-carlos-bariloche",
        "nombre": "San Carlos de Bariloche",
        "provincia": "Río Negro",
        "poblacion": 130000
      }
    },
    {
      "type": "Feature",
      "geometry": {
        "type": "Point",
        "coordinates": [-62.99, -40.81]
      },
      "properties": {
        "id": "viedma",
        "nombre": "Viedma",
        "provincia": "Río Negro",
        "poblacion": 53000
      }
    },
    {
      "type": "Feature",
      "geometry": {
        "type": "Point",
        "coordinates": [-69.3167, -51.6217]
      },
      "properties": {
        "id": "rio-gallegos",
        "nombre": "Río Gallegos",
        "provincia": "Santa Cruz",
        "poblacion": 110000
      }
    },
    {
      "type": "Feature",
      "geometry": {
        "type": "Point",
        "coordinates": [-68.3, -54.8]
      },
      "properties": {
        "id": "ushuaia",
        "nombre": "Ushuaia",
        "provincia": "Tierra del Fuego",
        "poblacion": 82000
      }
    },
    {
      "type": "Feature",
      "geometry": {
        "type": "Point",
        "coordinates": [-58.2333, -32.4833]
      },
      "properties": {
        "id": "concepcion-uruguay",
        "nombre": "Concepción del Uruguay",
        "provincia": "Entre Ríos",
        "poblacion": 49000
      }
    },
    {
      "type": "Feature",
      "geometry": {
        "type": "Point",
        "coordinates": [-61.49, -34.5]
      },
      "properties": {
        "id": "rafaela",
        "nombre": "Rafaela",
        "provincia": "Santa Fe",
        "poblacion": 100000
      }
    },
    {
      "type": "Feature",
      "geometry": {
        "type": "Point",
        "coordinates": [-61.9667, -34.6833]
      },
      "properties": {
        "id": "venado-tuerto",
        "nombre": "Venado Tuerto",
        "provincia": "Santa Fe",
        "poblacion": 82000
      }
    },
    {
      "type": "Feature",
      "geometry": {
        "type": "Point",
        "coordinates": [-58.5167, -33.0]
      },
      "properties": {
        "id": "gualeguaychu",
        "nombre": "Gualeguaychú",
        "provincia": "Entre Ríos",
        "poblacion": 109000
      }
    },
    {
      "type": "Feature",
      "geometry": {
        "type": "Point",
        "coordinates": [-59.65, -29.15]
      },
      "properties": {
        "id": "reconquista",
        "nombre": "Reconquista",
        "provincia": "Santa Fe",
        "poblacion": 99000
      }
    },
    {
      "type": "Feature",
      "geometry": {
        "type": "Point",
        "coordinates": [-61.5167, -33.3333]
      },
      "properties": {
        "id": "casilda",
        "nombre": "Casilda",
        "provincia": "Santa Fe",
        "poblacion": 36000
      }
    },
    {
      "type": "Feature",
      "geometry": {
        "type": "Point",
        "coordinates": [-64.35, -33.125]
      },
      "properties": {
        "id": "rio-cuarto",
        "nombre": "Río Cuarto",
        "provincia": "Córdoba",
        "poblacion": 163000
      }
    },
    {
      "type": "Feature",
      "geometry": {
        "type": "Point",
        "coordinates": [-64.4267, -31.65]
      },
      "properties": {
        "id": "villa-maria",
        "nombre": "Villa María",
        "provincia": "Córdoba",
        "poblacion": 79600
      }
    },
    {
      "type": "Feature",
      "geometry": {
        "type": "Point",
        "coordinates": [-64.42, -31.65]
      },
      "properties": {
        "id": "alta-gracia",
        "nombre": "Alta Gracia",
        "provincia": "Córdoba",
        "poblacion": 48000
      }
    },
    {
      "type": "Feature",
      "geometry": {
        "type": "Point",
        "coordinates": [-64.3333, -23.1333]
      },
      "properties": {
        "id": "oran",
        "nombre": "San Ramón de la Nueva Orán",
        "provincia": "Salta",
        "poblacion": 87000
      }
    },
    {
      "type": "Feature",
      "geometry": {
        "type": "Point",
        "coordinates": [-63.8167, -22.5167]
      },
      "properties": {
        "id": "tartagal",
        "nombre": "Tartagal",
        "provincia": "Salta",
        "poblacion": 70000
      }
    },
    {
      "type": "Feature",
      "geometry": {
        "type": "Point",
        "coordinates": [-62.1, -32.6833]
      },
      "properties": {
        "id": "marcos-juarez",
        "nombre": "Marcos Juárez",
        "provincia": "Córdoba",
        "poblacion": 25000
      }
    },
    {
      "type": "Feature",
      "geometry": {
        "type": "Point",
        "coordinates": [-59.0333, -34.1]
      },
      "properties": {
        "id": "zarate",
        "nombre": "Zárate",
        "provincia": "Buenos Aires",
        "poblacion": 99000
      }
    },
    {
      "type": "Feature",
      "geometry": {
        "type": "Point",
        "coordinates": [-60.57, -33.91]
      },
      "properties": {
        "id": "pergamino",
        "nombre": "Pergamino",
        "provincia": "Buenos Aires",
        "poblacion": 91000
      }
    },
    {
      "type": "Feature",
      "geometry": {
        "type": "Point",
        "coordinates": [-60.0167, -35.0167]
      },
      "properties": {
        "id": "chivilcoy",
        "nombre": "Chivilcoy",
        "provincia": "Buenos Aires",
        "poblacion": 65000
      }
    },
    {
      "type": "Feature",
      "geometry": {
        "type": "Point",
        "coordinates": [-58.9667, -34.1667]
      },
      "properties": {
        "id": "campana",
        "nombre": "Campana",
        "provincia": "Buenos Aires",
        "poblacion": 95000
      }
    },
    {
      "type": "Feature",
      "geometry": {
        "type": "Point",
        "coordinates": [-59.25, -29.15]
      },
      "properties": {
        "id": "goya",
        "nombre": "Goya",
        "provincia": "Corrientes",
        "poblacion": 77000
      }
    }
  ]
}
